City_ID,City,Country,Lat,Lng,Max Temp,Humidity,Cloudiness,Wind Speed,Current Description
0,Kavieng,PG,-2.5744,150.7967,80.4,86,100,21.14,moderate rain
1,Hualmay,PE,-11.0964,-77.6139,70.45,78,87,9.93,overcast clouds
2,Torbay,CA,47.6666,-52.7314,35.67,76,90,14.97,overcast clouds
3,Nioro,GM,13.35,-15.75,84.16,16,97,4.68,overcast clouds
4,Harper,LR,4.375,-7.7169,80.29,82,59,9.82,broken clouds
5,Kingaroy,AU,-26.5333,151.8333,66.24,100,90,0.0,overcast clouds
6,Barrow,US,71.2906,-156.7887,-2.16,96,100,17.27,overcast clouds
7,Punta Arenas,CL,-53.15,-70.9167,60.91,31,0,8.05,clear sky
8,Port Hardy,CA,50.6996,-127.4199,42.8,81,75,14.97,light intensity shower rain
9,Rikitea,PF,-23.1203,-134.9692,75.76,66,66,20.15,broken clouds
10,Praia,CV,14.9215,-23.5087,73.94,73,0,14.97,clear sky
11,Mar Del Plata,AR,-38.0023,-57.5575,71.62,87,0,24.0,clear sky
12,Mataura,NZ,-46.1927,168.8643,52.48,80,90,2.33,overcast clouds
13,Leningradskiy,RU,69.3833,178.4167,-8.12,94,100,16.82,overcast clouds
14,Bokaa,BW,-24.45,26.0167,72.09,68,0,10.36,clear sky
15,Axim,GH,4.8699,-2.2405,80.02,83,6,7.43,clear sky
16,Busselton,AU,-33.65,115.3333,77.04,47,1,10.67,clear sky
17,Tikrit,IQ,34.6071,43.6782,60.6,50,11,10.56,few clouds
18,Nikolskoye,RU,59.7035,30.7861,10.29,100,93,3.13,overcast clouds
19,Pisco,PE,-13.7,-76.2167,73.45,68,0,14.97,clear sky
20,Chuy,UY,-33.6971,-53.4616,69.96,63,1,12.06,clear sky
21,Chik,RU,54.9928,82.4311,-6.05,77,90,8.95,light snow
22,Port Alfred,ZA,-33.5906,26.891,69.12,95,100,13.4,light rain
23,Talavera De La Reina,ES,39.9635,-4.8308,41.04,84,60,5.97,broken clouds
24,Coquimbo,CL,-29.9533,-71.3436,65.93,63,0,13.8,clear sky
25,Lebu,CL,-37.6167,-73.65,61.7,75,10,18.66,clear sky
26,Ushuaia,AR,-54.8,-68.3,55.06,44,0,4.61,clear sky
27,Roma,US,43.2128,-75.4557,32.09,88,90,5.75,light snow
28,Cagli,IT,43.5457,12.6527,47.39,90,100,7.2,overcast clouds
29,Mao,ES,39.8885,4.2658,54.16,43,20,18.41,few clouds
30,Sao Filipe,CV,14.8961,-24.4956,76.87,66,100,10.29,overcast clouds
31,Puerto Ayora,EC,-0.7393,-90.3518,80.56,78,88,8.66,overcast clouds
32,Hobart,AU,-42.8794,147.3294,54.01,75,75,9.22,broken clouds
33,Ramtek,IN,21.4,79.3333,66.96,65,2,5.41,clear sky
34,Upernavik,GL,72.7868,-56.1549,6.82,89,95,7.25,overcast clouds
35,Keflavik,IS,64.0049,-22.5624,36.03,87,75,25.32,broken clouds
36,Kindersley,CA,51.4668,-109.1682,38.98,74,40,13.8,scattered clouds
37,Dinguiraye,GN,11.3,-10.7167,75.13,21,64,1.12,broken clouds
38,Ponta Do Sol,PT,32.6667,-17.1,64.13,71,38,8.86,scattered clouds
39,Jining,CN,35.405,116.5814,41.34,82,27,4.92,scattered clouds
40,Klaksvik,FO,62.2266,-6.589,40.12,78,100,28.05,overcast clouds
41,Vaini,TO,-21.2,-175.2,80.76,78,20,9.22,few clouds
42,New Norfolk,AU,-42.7826,147.0587,53.65,68,5,1.59,clear sky
43,Yankton,US,42.8711,-97.3973,41.11,41,1,18.41,clear sky
44,Herre,NO,59.1,9.5667,32.05,96,100,8.86,light snow
45,Bethel,US,41.3712,-73.414,39.04,75,100,3.67,light rain
46,Cape Town,ZA,-33.9258,18.4232,70.12,70,0,1.01,clear sky
47,Ponta Delgada,PT,37.7333,-25.6667,61.5,72,75,2.3,broken clouds
48,Los Banos,PH,14.1667,121.1833,77.49,80,99,12.08,overcast clouds
49,Xining,CN,36.6167,101.7667,28.31,39,1,1.19,clear sky
50,Lompoc,US,34.6391,-120.4579,69.78,68,1,0.0,clear sky
51,Arman,RU,59.7,150.1667,-24.99,81,1,10.29,clear sky
52,Flinders,AU,-34.5833,150.8552,63.21,92,100,8.75,light rain
53,Rawson,AR,-43.3002,-65.1023,56.52,54,3,17.74,clear sky
54,Namatanai,PG,-3.6667,152.4333,81.66,81,100,8.52,light rain
55,Rio Grande,BR,-32.035,-52.0986,77.11,62,6,14.03,clear sky
56,East London,ZA,-33.0153,27.9116,70.57,93,99,11.59,light rain
57,Bell Ville,AR,-32.6259,-62.6887,87.8,17,50,8.25,scattered clouds
58,Tuktoyaktuk,CA,69.4541,-133.0374,12.2,92,90,12.66,overcast clouds
59,Saldanha,ZA,-33.0117,17.9442,71.65,89,60,10.74,broken clouds
60,Kapaa,US,22.0752,-159.319,78.12,59,21,1.01,light rain
61,Boffa,GN,10.1667,-14.0333,81.5,83,2,3.8,clear sky
62,Morgan City,US,29.6994,-91.2068,67.03,88,90,8.05,overcast clouds
63,Hilo,US,19.7297,-155.09,77.79,46,90,5.75,light rain
64,Batemans Bay,AU,-35.7167,150.1833,63.19,93,100,3.49,moderate rain
65,Iqaluit,CA,63.7506,-68.5145,6.53,77,75,3.0,light snow
66,Novopokrovka,UA,49.8425,36.5477,41.38,94,100,8.84,overcast clouds
67,Albany,US,42.6001,-73.9662,34.81,81,100,1.61,overcast clouds
68,Lavrentiya,RU,65.5833,-171.0,-8.09,95,56,8.84,broken clouds
69,Avera,US,33.194,-82.5271,56.71,74,70,11.48,broken clouds
70,Tortoli,IT,39.9256,9.6572,51.37,73,73,9.82,broken clouds
71,Baykit,RU,61.67,96.37,-23.58,100,90,1.7,overcast clouds
72,Finnsnes,NO,69.2296,17.9811,19.36,93,4,5.55,clear sky
73,Sarande,AL,39.8756,20.0053,49.19,90,83,6.93,broken clouds
74,Bundaberg,AU,-24.85,152.35,73.69,100,44,3.44,scattered clouds
75,Palmer,US,42.1584,-72.3287,35.85,61,90,1.01,overcast clouds
76,Puerto Penasco,MX,31.3167,-113.5333,68.92,76,28,5.99,scattered clouds
77,Tocopilla,CL,-22.092,-70.1979,69.69,66,98,13.98,overcast clouds
78,Alugan,PH,12.2188,125.4808,79.25,87,100,19.71,moderate rain
79,Avarua,CK,-21.2078,-159.775,80.65,83,90,2.3,light rain
80,Lisakovsk,KZ,52.5369,62.4936,9.14,81,96,7.54,overcast clouds
81,Luderitz,NA,-26.6481,15.1594,61.36,92,0,11.61,clear sky
82,Mason City,US,43.1536,-93.201,28.67,64,82,6.26,broken clouds
83,Chokurdakh,RU,70.6333,147.9167,-47.78,100,97,3.38,overcast clouds
84,Dakar,SN,14.6937,-17.4441,75.33,78,76,4.61,broken clouds
85,Tabou,CI,4.423,-7.3528,80.44,82,15,10.22,few clouds
86,Cedar City,US,37.6775,-113.0619,43.39,64,85,9.17,overcast clouds
87,Pueblo Nuevo,MX,23.3833,-105.3833,71.31,22,13,6.53,few clouds
88,Manadhoo,MV,5.7667,73.3833,81.28,74,69,3.04,broken clouds
89,Ilulissat,GL,69.2167,-51.1,7.84,80,100,3.22,overcast clouds
90,Esperance,AU,-33.8667,121.9,57.04,75,0,18.37,clear sky
91,Katherine,AU,-14.4667,132.2667,77.32,88,75,6.91,broken clouds
92,Ishigaki,JP,24.3448,124.1572,70.92,62,100,17.05,overcast clouds
93,Port Elizabeth,ZA,-33.918,25.5701,65.1,100,90,6.91,light rain
94,Guerrero Negro,MX,27.9769,-114.0611,69.93,49,100,5.88,overcast clouds
95,Geraldton,AU,-28.7667,114.6,70.21,88,90,9.22,overcast clouds
96,Kattivakkam,IN,13.2167,80.3167,82.08,86,0,7.07,clear sky
97,Kuching,MY,1.55,110.3333,75.42,100,40,2.3,scattered clouds
98,Bluff,NZ,-46.6,168.3333,52.81,88,100,5.19,overcast clouds
99,Dingle,PH,10.9995,122.6711,75.9,89,98,13.04,moderate rain
100,Faanui,PF,-16.4833,-151.75,81.34,76,27,14.03,scattered clouds
101,Lagoa,PT,39.05,-27.9833,60.44,54,100,1.41,overcast clouds
102,Adrar,MR,20.5022,-10.0711,63.64,13,25,12.12,scattered clouds
103,Kotka,FI,60.4664,26.9458,-6.54,82,47,4.0,scattered clouds
104,Aljezur,PT,37.3191,-8.8033,55.81,74,53,15.1,broken clouds
105,Mecca,SA,21.4267,39.8261,75.11,72,57,6.04,broken clouds
106,Laguna,US,38.421,-121.4238,55.26,87,90,1.01,fog
107,Thompson,CA,55.7435,-97.8558,-12.84,77,90,0.0,overcast clouds
108,Fort Nelson,CA,58.8053,-122.7002,6.39,85,75,0.0,broken clouds
109,Luwuk,ID,-0.9516,122.7875,78.06,88,100,1.77,overcast clouds
110,Kichera,RU,55.9375,110.0997,8.26,85,40,4.85,scattered clouds
111,Alofi,NU,-19.0595,-169.9187,73.29,100,90,6.91,moderate rain
112,Wuwei,CN,37.9281,102.6414,30.94,37,2,1.83,clear sky
113,Garowe,SO,8.4054,48.4845,69.3,66,96,13.42,overcast clouds
114,Dalkola,IN,25.85,87.85,66.74,71,5,4.12,clear sky
115,The Valley,AI,18.217,-63.0578,84.06,69,40,12.66,scattered clouds
116,Atar,MR,20.5169,-13.0499,70.63,12,68,11.21,broken clouds
117,Longyearbyen,SJ,78.2186,15.6401,24.64,86,40,3.44,scattered clouds
118,Kloulklubed,PW,7.0419,134.2556,82.38,72,100,2.73,overcast clouds
119,Areosa,PT,41.7178,-8.8571,51.33,79,96,17.83,overcast clouds
120,Bredasdorp,ZA,-34.5322,20.0403,64.27,89,99,11.7,overcast clouds
121,Kenora,CA,49.8167,-94.4337,10.38,72,90,8.05,overcast clouds
122,Nara,JP,34.6851,135.8049,45.97,78,3,2.55,clear sky
123,Priargunsk,RU,50.3691,119.1012,6.22,99,100,1.25,overcast clouds
124,Hithadhoo,MV,-0.6,73.0833,81.48,75,93,10.36,moderate rain
125,Qaanaaq,GL,77.484,-69.3632,7.29,65,16,7.81,few clouds
126,Arraial Do Cabo,BR,-22.9661,-42.0278,67.96,94,75,4.61,broken clouds
127,Deputatskiy,RU,69.3,139.9,-35.54,83,98,3.31,overcast clouds
128,Veraval,IN,20.9,70.3667,73.11,57,0,13.69,clear sky
129,Xaxim,BR,-26.9617,-52.5347,79.18,28,0,5.7,clear sky
130,Jamestown,US,42.097,-79.2353,29.08,87,90,8.99,light snow
131,Georgetown,MY,5.4112,100.3354,78.89,82,20,1.01,few clouds
132,Chernyshevskiy,RU,63.0128,112.4714,-24.7,97,92,2.82,overcast clouds
133,Takapau,NZ,-40.0333,176.35,71.73,59,79,3.69,broken clouds
134,Tsaratanana,MG,-16.7833,47.65,74.35,54,1,6.64,clear sky
135,Garchitorena,PH,13.8804,123.6946,77.54,82,100,18.57,overcast clouds
136,Cheney,US,47.4874,-117.5758,45.25,68,1,23.02,clear sky
137,Cherskiy,RU,68.75,161.3,-43.85,99,100,3.53,overcast clouds
138,Salalah,OM,17.0151,54.0924,73.49,40,0,1.14,clear sky
139,Bambous Virieux,MU,-20.3428,57.7575,78.22,78,20,3.44,few clouds
140,Padang,ID,-0.9492,100.3543,77.41,87,67,4.18,broken clouds
141,Ribeira Grande,PT,38.5167,-28.7,61.2,67,75,5.75,broken clouds
142,Camacha,PT,33.0833,-16.3333,60.53,72,75,9.22,broken clouds
143,Taseyevo,RU,57.2169,94.8978,-6.65,96,46,3.65,scattered clouds
144,Hot Springs,US,34.5037,-93.0552,58.55,30,4,5.01,clear sky
145,Ravar,IR,31.2656,56.8055,50.23,31,100,1.74,overcast clouds
146,Niksar,TR,40.5917,36.9517,50.09,84,100,3.27,overcast clouds
147,Quang Ngai,VN,15.1167,108.8,70.41,91,100,3.78,overcast clouds
148,Butaritari,KI,3.0707,172.7902,82.42,77,72,12.8,broken clouds
149,Souillac,MU,-20.5167,57.5167,78.37,78,20,3.44,few clouds
150,Poronaysk,RU,49.2167,143.1167,15.46,90,63,2.37,broken clouds
151,Mahebourg,MU,-20.4081,57.7,78.26,78,20,3.44,few clouds
152,Altay,CN,47.8667,88.1167,23.83,98,100,3.36,light snow
153,Olafsvik,IS,64.8945,-23.7142,35.74,83,100,26.82,overcast clouds
154,Keetmanshoop,NA,-26.5833,18.1333,83.32,24,0,13.96,clear sky
155,Atuona,PF,-9.8,-139.0333,78.21,74,11,17.54,few clouds
156,Jacmel,HT,18.2342,-72.5347,80.58,64,1,4.63,clear sky
157,Guadalupe,MX,25.6833,-100.25,90.39,45,100,5.12,overcast clouds
158,Yellowknife,CA,62.456,-114.3525,6.42,95,90,6.91,light snow
159,Husavik,IS,66.0449,-17.3389,17.51,63,41,14.45,scattered clouds
160,Lewisporte,CA,49.2499,-55.0482,29.91,51,100,9.8,overcast clouds
161,Hermanus,ZA,-34.4187,19.2345,69.91,85,95,13.73,overcast clouds
162,Clyde River,CA,70.4692,-68.5914,7.03,78,27,4.61,scattered clouds
163,Vestmanna,FO,62.1564,-7.1664,36.52,93,75,16.11,broken clouds
164,College Place,US,46.0493,-118.3883,52.99,61,39,17.0,scattered clouds
165,Ulan-Ude,RU,51.8261,107.6098,3.09,85,40,4.47,scattered clouds
166,Saint Anthony,US,45.0205,-93.218,20.84,75,75,3.0,broken clouds
167,Kenai,US,60.5544,-151.2583,15.85,87,90,0.0,light snow
168,Maues,BR,-3.3836,-57.7186,80.26,92,98,1.54,overcast clouds
169,San Quintin,MX,30.4833,-115.95,64.98,68,73,10.58,broken clouds
170,Sorong,ID,-0.8833,131.25,80.87,80,100,5.3,overcast clouds
171,Kaitangata,NZ,-46.2817,169.8464,58.05,75,84,2.28,broken clouds
172,Lima,PE,-12.0432,-77.0282,70.14,68,40,14.97,scattered clouds
173,Santa Ana,US,33.7456,-117.8678,71.51,59,20,3.0,few clouds
174,Santa Vitoria Do Palmar,BR,-33.5189,-53.3681,70.07,62,3,12.62,clear sky
175,Muleba,TZ,-1.8397,31.6544,68.22,75,96,4.38,overcast clouds
176,Katsuura,JP,35.1333,140.3,52.2,77,99,26.84,overcast clouds
177,Wanning,CN,18.8003,110.3967,71.58,84,81,14.61,broken clouds
178,Santa Cruz De La Palma,ES,28.6835,-17.7642,68.14,64,75,14.97,broken clouds
179,Taoudenni,ML,22.6783,-3.9836,65.1,16,89,8.77,overcast clouds
180,Lalgudi,IN,10.8667,78.8333,77.32,94,40,3.44,mist
181,Lorengau,PG,-2.0226,147.2712,80.42,85,100,17.02,overcast clouds
182,Vostok,RU,46.4856,135.8833,11.62,88,31,4.68,scattered clouds
183,Garmsar,IR,35.2182,52.3409,50.02,48,99,2.44,overcast clouds
184,Cabedelo,BR,-6.9811,-34.8339,83.07,75,8,12.06,clear sky
185,Havelock,US,34.8791,-76.9013,48.15,95,100,1.01,overcast clouds
186,North Bend,US,43.4065,-124.2243,49.86,97,100,8.37,overcast clouds
187,Igarka,RU,67.4667,86.5833,10.85,94,100,17.34,light snow
188,Lasa,IT,46.6166,10.7002,33.26,96,100,2.19,snow
189,Coihaique,CL,-45.5752,-72.0662,75.15,35,20,10.36,few clouds
190,Victoria,HK,22.2855,114.1577,67.98,83,34,5.01,scattered clouds
191,Rognan,NO,67.0953,15.3878,17.74,87,6,11.07,clear sky
192,Fortuna,US,40.5982,-124.1573,56.19,73,90,1.99,overcast clouds
193,Lermontovka,RU,47.1453,134.3383,16.0,91,95,5.14,overcast clouds
194,Puerto Narino,CO,-3.7703,-70.3831,91.35,83,100,3.78,overcast clouds
195,Ixtapa,MX,20.7,-105.2,90.81,27,5,6.87,clear sky
196,Tasiilaq,GL,65.6145,-37.6368,29.73,90,100,38.5,snow
197,Tiksi,RU,71.6872,128.8694,-19.57,96,100,6.69,overcast clouds
198,Labuhan,ID,-6.8844,112.2051,78.87,84,100,8.86,overcast clouds
199,Constitucion,CL,-35.3333,-72.4167,65.1,71,38,11.72,scattered clouds
200,Ust-Ilimsk,RU,58.0006,102.6619,-2.97,91,54,7.56,broken clouds
201,Osa,RU,57.2829,55.4567,27.01,96,100,12.19,light snow
202,Salinopolis,BR,-0.6136,-47.3561,80.67,83,24,7.85,heavy intensity rain
203,Coos Bay,US,43.3665,-124.2179,49.98,91,90,11.5,haze
204,Norman Wells,CA,65.282,-126.8329,10.44,85,90,11.5,light snow
205,Wattegama,LK,6.7989,81.4808,73.51,94,80,3.29,broken clouds
206,Ahipara,NZ,-35.1667,173.1667,71.06,67,88,2.86,overcast clouds
207,Tlapacoyan,MX,19.9667,-97.2167,81.43,67,19,5.46,few clouds
208,La Ronge,CA,55.1001,-105.2842,1.65,78,90,8.05,light snow
209,Boende,CD,-0.2167,20.8667,73.17,91,96,2.55,light rain
210,Maner,IN,25.65,84.8833,55.31,50,23,5.73,few clouds
211,Abilene,US,32.4487,-99.7331,77.49,18,1,4.0,clear sky
212,Saint-Philippe,RE,-21.3585,55.7679,74.75,72,20,9.01,few clouds
213,Hami,CN,42.8,93.45,28.06,62,99,4.43,overcast clouds
214,Sovetskiy,RU,61.3614,63.5842,3.99,92,100,5.1,overcast clouds
215,Jumla,NP,29.2747,82.1838,37.9,38,0,5.79,clear sky
216,Coreau,BR,-3.5333,-40.6567,89.06,41,48,6.76,scattered clouds
217,Moerai,PF,-22.4333,-151.3333,76.96,86,100,14.29,moderate rain
218,Bud,US,39.447,-86.1758,41.68,53,5,9.75,clear sky
219,Oranjestad,AW,12.524,-70.027,84.15,70,20,20.71,few clouds
220,Saint George,US,37.1041,-113.5841,55.94,61,96,1.99,overcast clouds
221,Yulara,AU,-25.2406,130.9889,69.64,40,1,8.05,clear sky
222,Belaya Gora,RU,68.5333,146.4167,-49.4,100,97,2.17,overcast clouds
223,Comodoro Rivadavia,AR,-45.8667,-67.5,58.86,44,0,20.71,clear sky
224,Carnarvon,AU,-24.8667,113.6333,71.67,88,90,12.66,overcast clouds
225,Novocheboksarsk,RU,56.111,47.4776,32.56,93,90,8.95,mist
226,Saskylakh,RU,71.9167,114.0833,-6.97,90,100,9.24,overcast clouds
227,Ancud,CL,-41.8697,-73.8203,80.22,63,3,7.2,clear sky
228,Mayumba,GA,-3.432,10.6554,78.64,90,92,2.04,overcast clouds
229,Bonavista,CA,48.6499,-53.1147,32.11,54,100,15.79,overcast clouds
230,San Patricio,US,28.017,-97.5169,81.01,45,42,6.8,scattered clouds
231,Akureyri,IS,65.6835,-18.0878,17.53,86,0,8.05,clear sky
232,Narsaq,GL,60.9167,-46.05,21.22,82,71,9.44,broken clouds
233,Kabansk,RU,52.0486,106.6528,3.69,90,100,5.06,overcast clouds
234,Gimbi,ET,9.1667,35.8333,58.14,37,48,1.52,scattered clouds
235,Gazanjyk,TM,39.2446,55.5154,48.87,60,2,18.99,clear sky
236,Khatanga,RU,71.9667,102.5,0.64,96,100,11.3,overcast clouds
237,Maltahohe,NA,-24.8333,16.9833,72.55,22,0,13.24,clear sky
238,Richards Bay,ZA,-28.783,32.0377,71.46,94,95,3.83,overcast clouds
239,Kariba,ZW,-16.5167,28.8,82.94,38,73,5.23,broken clouds
240,Abhar,IR,36.1468,49.218,39.52,79,7,6.58,clear sky
241,Mitsamiouli,KM,-11.3847,43.2844,79.86,77,29,10.94,scattered clouds
242,Andilamena,MG,-17.0167,48.5833,60.26,94,11,2.93,few clouds
243,Vrangel,RU,42.7297,133.0839,35.58,55,0,4.63,clear sky
244,Linjiang,CN,41.8069,126.9078,19.71,95,100,1.07,overcast clouds
245,Belyy,RU,55.8402,32.9419,7.18,94,46,6.67,scattered clouds
246,Isangel,VU,-19.55,169.2667,80.71,83,40,0.0,scattered clouds
247,Virginia Beach,US,36.8529,-75.978,46.02,75,100,1.01,overcast clouds
248,Kirakira,SB,-10.4544,161.9205,82.09,85,99,10.94,overcast clouds
249,Jahazpur,IN,25.6167,75.2833,60.22,45,0,4.21,clear sky
250,Buraydah,SA,26.326,43.975,61.25,22,73,10.58,broken clouds
251,Kapit,MY,2.0167,112.9333,73.22,100,62,0.98,broken clouds
252,Turukhansk,RU,65.8167,87.9833,-1.03,97,100,22.79,snow
253,Saint-Joseph,RE,-21.3667,55.6167,73.76,73,22,7.07,few clouds
254,Salamiyah,SY,35.0113,37.0532,49.98,79,100,11.95,overcast clouds
255,Dikson,RU,73.5069,80.5464,-3.71,94,100,22.77,overcast clouds
256,Cururupu,BR,-1.8283,-44.8683,79.65,80,30,3.44,scattered clouds
257,Erzin,TR,36.9559,36.2,50.72,88,100,5.79,overcast clouds
258,Buala,SB,-8.145,159.5921,81.41,84,100,7.49,light rain
259,Saint-Georges,GD,12.0564,-61.7485,83.88,74,40,16.11,scattered clouds
260,Yarim,YE,14.298,44.3779,44.85,22,0,3.67,clear sky
261,Cabo San Lucas,MX,22.8909,-109.9124,87.51,50,96,7.9,overcast clouds
262,Mount Gambier,AU,-37.8333,140.7667,51.71,76,90,8.05,overcast clouds
263,Provideniya,RU,64.3833,-173.3,6.91,78,90,31.32,overcast clouds
264,Karasjok,NO,69.4719,25.5112,5.11,100,76,3.06,broken clouds
265,Waipawa,NZ,-41.4122,175.5153,65.03,71,84,10.02,moderate rain
266,Linfen,CN,36.0889,111.5189,37.51,65,17,2.64,few clouds
267,Kuito,AO,-12.3833,16.9333,58.37,89,93,2.44,overcast clouds
268,Preobrazheniye,RU,42.9019,133.9064,35.76,57,0,5.48,clear sky
269,Grand Gaube,MU,-20.0064,57.6608,78.39,70,20,5.01,few clouds
270,Arkadelphia,US,34.1209,-93.0538,61.59,35,1,3.44,clear sky
271,Kushima,JP,31.4583,131.2333,47.12,82,1,7.74,clear sky
272,Nova Vicosa,BR,-17.8919,-39.3719,74.03,94,94,6.22,overcast clouds
273,Sola,VU,-13.8833,167.55,81.72,77,100,8.25,overcast clouds
274,Tucuman,AR,-26.8241,-65.2226,86.0,54,75,5.75,broken clouds
275,Reconquista,AR,-29.15,-59.65,95.09,23,0,8.77,clear sky
276,Sisimiut,GL,66.9395,-53.6735,19.04,60,98,8.57,overcast clouds
277,Sambava,MG,-14.2667,50.1667,74.82,80,99,8.52,light rain
278,Tigil,RU,57.8,158.6667,5.38,88,95,9.44,overcast clouds
279,Bilma,NE,18.6853,12.9164,63.91,13,25,7.63,scattered clouds
280,Tupiza,BO,-21.45,-65.7167,66.56,53,68,18.12,broken clouds
281,Bengkulu,ID,-3.8004,102.2655,74.68,91,59,4.56,broken clouds
282,Tuatapere,NZ,-46.1333,167.6833,52.83,94,100,3.38,overcast clouds
283,Gravdal,NO,68.1214,13.5031,24.48,67,86,7.87,overcast clouds
284,Boden,SE,65.8252,21.6886,-7.6,99,37,1.25,scattered clouds
285,Roebourne,AU,-20.7833,117.1333,87.93,39,17,3.89,few clouds
286,Brae,GB,60.3964,-1.353,44.51,84,100,30.62,overcast clouds
287,Khani,GE,41.9563,42.9566,54.97,52,69,6.76,broken clouds
288,Sidi Ali,DZ,36.0998,0.4206,55.51,65,84,16.6,broken clouds
289,Cayenne,GF,4.9333,-52.3333,77.09,85,90,1.99,overcast clouds
290,Castro,BR,-24.7911,-50.0119,68.94,59,20,3.29,few clouds
291,Mujiayingzi,CN,42.1167,118.7833,32.95,46,100,5.37,light snow
292,Dipalpur,PK,30.6709,73.6529,57.63,37,0,2.24,clear sky
293,Santiago De Cao,PE,-7.9589,-79.2392,66.33,82,40,11.5,scattered clouds
294,Pangnirtung,CA,66.1451,-65.7125,5.0,72,90,5.75,overcast clouds
295,Birjand,IR,32.8663,59.2211,34.27,34,0,4.61,clear sky
296,Papetoai,PF,-17.4961,-149.8729,81.99,71,33,16.87,scattered clouds
297,Vierzon,FR,47.2101,2.0625,38.48,92,15,7.14,few clouds
298,Phalaborwa,ZA,-23.943,31.1411,72.68,79,100,2.93,overcast clouds
299,Tawau,MY,4.2498,117.8871,77.13,88,93,1.99,overcast clouds
300,Chicama,PE,-7.8447,-79.1469,64.94,68,93,10.16,overcast clouds
301,Saint-Augustin,CA,51.226,-58.6502,18.27,47,64,15.73,broken clouds
302,Shenjiamen,CN,29.9576,122.298,58.19,74,100,4.29,overcast clouds
303,Salta,AR,-24.7859,-65.4117,80.89,57,90,3.44,overcast clouds
304,Portland,US,45.5234,-122.6762,50.9,77,75,1.99,broken clouds
305,Vila Velha,BR,-20.3297,-40.2925,71.55,95,90,11.5,overcast clouds
306,Ayagoz,KZ,47.9714,80.4392,-8.14,98,60,11.01,broken clouds
307,Dobrichovice,CZ,49.9275,14.2747,35.13,90,90,8.05,overcast clouds
308,Bukama,CD,-9.2,25.85,67.87,97,71,2.84,light rain
309,Sitges,ES,41.2351,1.8119,52.02,41,90,5.01,overcast clouds
310,Srednekolymsk,RU,67.45,153.6833,-26.7,99,100,3.89,overcast clouds
311,Monze,ZM,-16.2833,27.4833,74.05,41,12,5.32,few clouds
312,San-Pedro,CI,4.7485,-6.6363,80.15,84,17,8.68,few clouds
313,Mortka,RU,59.3322,66.0214,8.83,87,99,7.0,overcast clouds
314,Meadow Lake,US,34.8014,-106.5436,56.17,47,100,6.71,overcast clouds
315,Riyadh,SA,24.6877,46.7219,62.74,28,96,8.75,overcast clouds
316,Inta,RU,66.0317,60.1659,-6.54,98,9,8.01,clear sky
317,Kendari,ID,-3.945,122.4989,75.76,89,100,2.93,overcast clouds
318,Maniitsoq,GL,65.4167,-52.9,29.37,55,98,11.05,overcast clouds
319,Maraa,BR,-1.8333,-65.3667,81.54,88,100,2.57,overcast clouds
320,Khasan,RU,42.4308,130.6434,29.98,81,10,4.7,clear sky
321,Westerland,DE,54.9079,8.3033,37.42,93,90,17.27,overcast clouds
322,San Luis,AR,-33.295,-66.3356,67.39,72,100,6.62,overcast clouds
323,Teahupoo,PF,-17.8333,-149.2667,76.96,72,74,16.75,broken clouds
324,Broome,US,42.2506,-75.833,32.83,76,90,3.0,light snow
325,Bati,ET,11.1833,40.0167,59.43,33,0,3.31,clear sky
326,Namibe,AO,-15.1961,12.1522,69.33,72,3,2.8,clear sky
327,Loubomo,CG,-4.1997,12.6739,74.32,93,99,1.01,overcast clouds
328,Puerto Cabezas,NI,14.0351,-83.3888,85.96,79,40,9.22,scattered clouds
329,Haines Junction,CA,60.7522,-137.5108,-0.45,85,100,2.3,overcast clouds
330,Kodiak,US,57.79,-152.4072,34.47,70,15,31.5,few clouds
331,Beberibe,BR,-4.1797,-38.1306,86.16,75,47,12.01,scattered clouds
332,Ocampo,MX,21.65,-101.5,72.28,15,19,8.79,few clouds
333,Hay River,CA,60.8156,-115.7999,4.98,85,90,11.5,light snow
334,Inhambane,MZ,-23.865,35.3833,77.4,78,96,7.67,overcast clouds
335,Gat,IL,31.61,34.7642,59.09,20,92,19.44,overcast clouds
336,Atherton,GB,53.5237,-2.4935,45.95,91,98,8.99,light rain
337,Seydi,TM,39.4816,62.9137,41.27,62,0,10.69,clear sky
338,Saint-Pierre,RE,-21.3393,55.4781,74.84,65,0,5.75,clear sky
339,Ulladulla,AU,-35.35,150.4667,60.76,93,100,5.77,light rain
340,Kletskaya,RU,49.3145,43.0584,41.07,78,100,9.82,overcast clouds
341,San Jeronimo,PE,-11.9472,-75.2829,62.17,60,100,4.56,overcast clouds
342,Noumea,NC,-22.2763,166.4572,81.0,99,0,3.33,clear sky
343,Moron,AR,-34.6534,-58.6198,84.0,47,97,1.99,overcast clouds
344,Marathon,US,44.9,-89.7668,21.76,67,1,0.0,clear sky
345,Tolaga Bay,NZ,-38.3667,178.3,75.24,57,52,4.94,broken clouds
346,Biak,ID,-0.9131,122.8766,76.84,86,100,1.28,overcast clouds
347,Ambunti,PG,-4.2365,142.8448,73.94,99,100,0.63,overcast clouds
348,Collipulli,CL,-37.95,-72.4333,89.8,18,1,10.63,clear sky
349,Ascension,US,30.2169,-90.9001,67.1,65,40,5.75,scattered clouds
350,Osoyoos,CA,49.0331,-119.4524,40.33,84,68,2.3,broken clouds
351,Bansi,IN,27.1833,82.9333,59.18,50,0,4.05,clear sky
352,Anadyr,RU,64.75,177.4833,3.7,77,75,15.01,light snow
353,Kralendijk,BQ,12.15,-68.2667,81.59,76,14,18.99,few clouds
354,Bowen,AU,-20.0167,148.2333,75.42,80,76,5.28,broken clouds
355,Zeya,RU,53.75,127.2667,11.89,93,100,5.3,overcast clouds
356,Banjarmasin,ID,-3.3244,114.591,75.34,95,97,1.45,overcast clouds
357,Vestmannaeyjar,IS,63.4427,-20.2734,40.86,65,100,30.53,overcast clouds
358,Airai,TL,-8.9266,125.4092,60.28,92,83,1.39,broken clouds
359,Komsomolskiy,UZ,40.4272,71.7189,38.12,70,0,9.22,mist
360,Marsh Harbour,BS,26.5412,-77.0636,78.04,79,51,11.03,broken clouds
361,Meulaboh,ID,4.1363,96.1285,77.04,88,99,3.29,overcast clouds
362,Trinidad,BO,-14.8333,-64.9,91.38,62,75,6.91,broken clouds
363,Khandyga,RU,62.6667,135.6,-18.58,96,100,2.48,overcast clouds
364,Vao,NC,-22.6667,167.4833,78.3,82,29,11.45,scattered clouds
365,Poum,NC,-20.2333,164.0167,81.63,75,10,9.71,clear sky
366,Roald,NO,62.5833,6.1333,37.54,48,0,14.97,clear sky
367,Manakara,MG,-22.1333,48.0167,74.61,87,28,6.87,scattered clouds
368,Port Lincoln,AU,-34.7333,135.8667,57.76,57,83,14.16,broken clouds
369,Tutayev,RU,57.8853,39.5406,4.48,99,45,3.96,scattered clouds
370,Ostrovnoy,RU,68.0531,39.5131,17.13,83,63,4.23,broken clouds
371,Calderitas,MX,18.55,-88.25,83.71,69,100,10.2,overcast clouds
372,Bathsheba,BB,13.2167,-59.5167,83.01,69,40,20.71,scattered clouds
373,Santa Rita Do Sapucai,BR,-22.2522,-45.7033,64.08,88,100,4.0,overcast clouds
374,Shasta Lake,US,40.6804,-122.3708,53.44,92,100,2.04,overcast clouds
375,Bassano,CA,50.7834,-112.4685,46.63,80,57,19.01,broken clouds
376,Sarany,RU,58.5,58.8833,20.5,95,100,8.21,light snow
377,Kaoma,ZM,-14.7833,24.8,68.76,78,100,5.39,overcast clouds
378,Kahului,US,20.8947,-156.47,79.86,79,75,9.22,broken clouds
379,Abu Samrah,SY,35.3029,37.1841,50.86,80,100,14.09,overcast clouds
380,Neuquen,AR,-38.9516,-68.0591,62.49,59,75,16.11,broken clouds
381,Nagram,IN,26.6167,81.1333,53.65,44,0,1.9,clear sky
382,Japura,ID,-0.3167,102.35,72.84,99,88,1.66,overcast clouds
383,Filadelfia,US,39.9523,-75.1638,41.45,53,73,1.01,broken clouds
384,Balakovo,RU,52.0278,47.8007,32.0,90,94,10.6,overcast clouds
385,Zhigansk,RU,66.7697,123.3711,-20.04,96,99,10.38,overcast clouds
386,Samarai,PG,-10.6167,150.6667,82.09,80,100,10.54,overcast clouds
387,Vila Franca Do Campo,PT,37.7167,-25.4333,61.2,69,100,4.41,overcast clouds
388,Innisfail,AU,-17.5333,146.0333,79.72,78,22,4.38,few clouds
389,Bandarbeyla,SO,9.4942,50.8122,76.35,70,49,19.57,scattered clouds
390,Kavaratti,IN,10.5669,72.642,80.15,74,5,5.77,clear sky
391,Annigeri,IN,15.4333,75.4333,69.35,70,0,7.16,clear sky
392,Sabha,LY,27.0377,14.4283,52.18,26,93,7.96,overcast clouds
393,San Jeronimito,MX,17.55,-101.3333,85.73,62,2,5.77,clear sky
394,Hauterive,FR,46.0901,3.4459,41.76,94,79,4.12,broken clouds
395,Umarkot,PK,25.3616,69.7362,63.46,28,0,8.88,clear sky
396,Nevers,FR,46.9167,3.3333,36.19,1,16,4.83,few clouds
397,Kedrovyy,RU,56.1667,91.8167,5.41,95,100,8.08,overcast clouds
398,Akdepe,TM,42.0551,59.3788,32.09,63,4,15.68,clear sky
399,Jambi,ID,-1.6,103.6167,73.15,99,100,2.75,overcast clouds
400,Plattling,DE,48.7833,12.8667,33.17,88,100,1.97,overcast clouds
401,Rocha,UY,-34.4833,-54.3333,71.65,55,46,13.94,scattered clouds
402,Mumford,GH,5.2618,-0.759,80.35,84,12,7.78,few clouds
403,Wanlaweyn,SO,2.6185,44.8938,76.42,76,16,11.27,few clouds
404,Nicoya,CR,10.1483,-85.452,90.95,61,57,8.68,broken clouds
405,Mareeba,AU,-17.0,145.4333,77.43,83,78,1.68,broken clouds
406,Waingapu,ID,-9.6567,120.2641,78.73,84,49,4.9,scattered clouds
407,Samoylovka,RU,51.184,43.7081,36.05,88,99,13.24,overcast clouds
408,Jizan,SA,17.3333,42.6667,79.74,76,0,0.36,clear sky
409,Anloga,GH,5.7947,0.8973,84.42,80,7,10.09,clear sky
410,Uttarkashi,IN,30.7333,78.45,47.17,25,0,7.72,clear sky
411,Abohar,IN,30.15,74.1833,57.52,40,0,0.51,clear sky
412,Soyo,AO,-6.1349,12.3689,78.94,84,40,5.5,scattered clouds
413,Caravelas,BR,-17.7125,-39.2481,73.0,98,100,5.53,overcast clouds
414,Vila,PT,42.0304,-8.1588,40.33,93,100,10.25,overcast clouds
415,Canchungo,GW,12.0672,-16.0333,75.27,50,34,5.08,scattered clouds
416,Kanodar,IN,24.1,72.3833,64.33,43,0,6.96,clear sky
417,Maceio,BR,-9.6658,-35.7353,85.44,70,20,17.27,few clouds
418,Rence,SI,45.89,13.6686,47.66,89,90,10.0,moderate rain
419,Oranjemund,NA,-28.55,16.4333,61.45,94,1,2.39,clear sky
420,Gulu,UG,2.7746,32.299,72.16,47,100,3.87,overcast clouds
421,Shimoda,JP,34.6667,138.95,48.11,79,44,15.7,scattered clouds
422,Chake Chake,TZ,-5.2459,39.7666,76.03,89,57,8.16,moderate rain
423,Watsa,CD,3.0372,29.5355,68.9,63,84,2.44,broken clouds
424,Santa Maria,BR,-29.6842,-53.8069,81.7,36,0,18.41,clear sky
425,Hovd,MN,48.0056,91.6419,17.92,67,66,1.21,broken clouds
426,Talnakh,RU,69.4865,88.3972,9.21,98,100,11.36,snow
427,Amga,RU,60.8953,131.9608,-6.48,98,100,2.3,overcast clouds
428,Wagar,SD,16.1525,36.2032,76.57,68,0,18.37,clear sky
429,Luena,AO,-11.7833,19.9167,62.62,90,25,2.42,light rain
430,Manado,ID,1.487,124.8455,77.77,94,40,3.44,scattered clouds
431,Margate,GB,51.3813,1.3862,43.7,73,81,1.99,broken clouds
432,Yongan,CN,39.6957,113.6871,30.79,71,100,5.17,light snow
433,Natal,BR,-5.795,-35.2094,84.85,70,40,13.8,scattered clouds
434,Pandan,PH,14.0453,124.1694,77.76,82,100,20.58,overcast clouds
435,Dhule,IN,20.9,74.7833,73.65,49,84,5.97,broken clouds
436,Mikhaylovka,RU,50.06,43.2379,40.78,84,100,10.8,overcast clouds
437,Radishchevo,RU,52.85,47.8833,31.78,95,100,11.21,overcast clouds
438,Panjab,AF,34.388,67.0233,23.83,39,0,3.6,clear sky
439,Nchelenge,ZM,-9.3451,28.734,70.43,82,40,8.93,scattered clouds
440,Ikom,NG,5.9667,8.7063,78.24,58,47,2.82,scattered clouds
441,Batagay-Alyta,RU,67.8006,130.4114,-29.25,91,100,1.21,overcast clouds
442,Grindavik,IS,63.8424,-22.4338,36.07,87,75,25.32,broken clouds
443,Bitung,ID,1.4451,125.1824,77.85,85,99,6.44,overcast clouds
444,Obo,CF,5.3998,26.4869,75.24,36,98,1.5,overcast clouds
445,Sivaki,RU,52.6333,126.75,8.55,97,100,3.22,overcast clouds
446,Sangar,RU,63.9242,127.4739,-16.87,94,100,10.09,overcast clouds
447,Quatre Cocos,MU,-20.2078,57.7625,78.1,72,36,10.29,scattered clouds
448,Isla Vista,US,34.4133,-119.861,73.35,71,2,1.99,clear sky
449,Tucuma,BR,-0.1833,-50.05,80.28,83,72,4.7,light rain
450,Naples,IT,40.8333,14.25,60.6,90,75,5.99,broken clouds
451,Guhagar,IN,17.4842,73.1929,73.56,66,0,4.99,clear sky
452,Melilla,ES,35.2937,-2.9383,59.38,58,0,20.71,clear sky
453,Horta,PT,38.5333,-28.6333,60.44,67,75,5.75,broken clouds
454,Zhangye,CN,38.9342,100.4517,32.27,30,54,2.84,broken clouds
455,Korla,CN,41.7597,86.1469,26.83,55,100,4.0,overcast clouds
456,Troina,IT,37.7854,14.5985,47.41,89,16,2.26,few clouds
457,Bairiki,KI,1.3292,172.9752,84.2,79,40,9.22,scattered clouds
458,Los Llanos De Aridane,ES,28.6585,-17.9182,64.15,74,75,11.99,broken clouds
459,Teya,RU,60.3778,92.6267,-11.4,97,89,5.64,overcast clouds
460,Shirgaon,IN,19.7,72.7,75.0,65,0,8.59,clear sky
461,Auriflama,BR,-20.6856,-50.5547,81.64,43,68,6.46,broken clouds
462,Najran,SA,17.4924,44.1277,54.25,14,0,2.42,clear sky
463,Touros,BR,-5.1989,-35.4608,85.1,75,27,13.67,scattered clouds
464,Bayreuth,DE,49.9481,11.5783,33.21,94,100,7.0,light snow
465,Guane,CU,22.2025,-84.0875,83.7,62,21,3.15,few clouds
466,Sitka,US,57.0531,-135.33,36.19,88,100,12.82,moderate rain
467,Tono,JP,39.3167,141.5333,35.47,89,100,4.05,overcast clouds
468,Hulyaypole,UA,47.6653,36.2578,47.17,80,100,13.18,overcast clouds
469,Nanortalik,GL,60.1432,-45.2371,26.28,82,97,14.79,overcast clouds
470,Miri,MY,4.4148,114.0089,77.14,94,40,5.75,scattered clouds
471,Yaan,NG,7.3833,8.5667,81.99,19,98,4.74,overcast clouds
472,Ambon,ID,-3.6954,128.1814,75.34,100,40,3.44,scattered clouds
473,Santiago Del Estero,AR,-27.7951,-64.2615,88.81,29,97,6.08,overcast clouds
474,Muzaffargarh,PK,30.0754,71.1921,53.62,33,0,3.02,clear sky
475,Codrington,AU,-38.2667,141.9667,56.41,62,58,18.01,broken clouds
476,Ndola,ZM,-12.9587,28.6366,70.95,43,59,6.11,broken clouds
477,Stavern,NO,59.0,10.0333,32.31,96,100,12.28,light snow
478,Quelimane,MZ,-17.8786,36.8883,82.35,83,20,10.0,few clouds
479,Smithers,CA,54.7804,-127.1743,17.92,100,90,2.3,overcast clouds
480,Saint-Francois,FR,46.4154,3.9054,39.47,88,90,5.75,overcast clouds
481,Jawa,JO,31.8525,35.9393,50.31,66,40,16.11,scattered clouds
482,Taloqan,AF,36.7361,69.5345,44.44,46,0,3.69,clear sky
483,Manokwari,ID,-0.8667,134.0833,78.75,78,100,3.62,overcast clouds
484,Mehamn,NO,71.0357,27.8492,15.71,62,0,18.41,clear sky
485,Asha,RU,54.9973,57.2722,19.47,90,100,2.42,overcast clouds
486,Sur,OM,22.5667,59.5289,74.17,45,44,8.95,scattered clouds
487,Zhezkazgan,KZ,47.8043,67.7144,13.39,54,95,10.36,overcast clouds
488,Umm Lajj,SA,25.0213,37.2685,68.67,45,43,19.69,scattered clouds
489,Nabire,ID,-3.3667,135.4833,76.75,86,100,3.47,overcast clouds
490,Les Cayes,HT,18.2,-73.75,82.04,61,3,7.61,clear sky
491,Sao Borja,BR,-28.6606,-56.0044,88.95,19,0,9.73,clear sky
492,Leshukonskoye,RU,64.8989,45.7622,12.02,97,100,4.18,overcast clouds
493,Kakogawa,JP,34.7667,134.85,49.95,65,5,6.38,clear sky
494,Dzilam Gonzalez,MX,21.2833,-88.9333,87.15,53,76,7.47,broken clouds
495,Elko,US,41.0002,-115.5012,44.06,64,100,10.0,overcast clouds
496,San Cristobal,VE,7.7669,-72.225,77.18,54,98,0.51,overcast clouds
497,Raduzhnyy,RU,62.0961,77.475,6.21,85,100,16.46,overcast clouds
498,Cidreira,BR,-30.1811,-50.2056,69.39,68,9,12.41,clear sky
499,Nanga Eboko,CM,4.6833,12.3667,71.15,59,39,1.79,scattered clouds
500,Severo-Yeniseyskiy,RU,60.3725,93.0408,-10.91,95,95,7.2,overcast clouds
501,Kyabe,TD,9.4515,18.9449,81.05,22,65,3.76,broken clouds
502,Sao Joao Da Barra,BR,-21.6403,-41.0511,69.89,91,100,7.83,overcast clouds
503,Inongo,CD,-1.95,18.2667,71.51,89,74,1.3,broken clouds
504,West Bay,KY,19.3667,-81.4167,86.05,74,40,1.99,scattered clouds
505,Adoni,IN,15.6333,77.2833,71.06,84,37,7.56,scattered clouds
506,Jimenez,MX,28.3333,-105.4,75.72,13,85,9.66,overcast clouds
507,Keningau,MY,5.3378,116.1602,73.85,99,96,1.7,overcast clouds
508,Minusinsk,RU,53.7103,91.6875,4.98,84,61,1.57,broken clouds
509,Emirdag,TR,39.0197,31.15,40.98,76,34,8.19,scattered clouds
510,Nelson Bay,AU,-32.7167,152.15,67.95,91,96,1.01,overcast clouds
511,Hambantota,LK,6.1241,81.1185,77.22,87,100,10.71,overcast clouds
512,Vredendal,ZA,-31.6683,18.5012,69.51,63,22,8.48,few clouds
513,Paka,MY,4.6374,103.4368,76.98,88,96,0.0,overcast clouds
514,Pevek,RU,69.7008,170.3133,-18.71,97,100,2.95,overcast clouds
515,Paso De Los Toros,UY,-32.8167,-56.5167,84.54,23,3,12.44,clear sky
516,Mirnyy,RU,62.5353,113.9611,-15.88,96,100,5.17,overcast clouds
517,Mulki,IN,13.1,74.8,78.08,78,0,0.0,clear sky
518,Orlik,RU,52.5178,99.825,-6.74,96,72,1.88,broken clouds
519,Yelkhovka,RU,53.8667,50.2832,32.76,93,100,14.43,overcast clouds
520,Hare Bay,CA,48.8499,-54.0148,29.55,55,100,8.84,overcast clouds
521,Tura,IN,25.5198,90.2201,60.85,85,0,3.98,clear sky
522,Makakilo City,US,21.3469,-158.0858,74.68,80,42,9.08,scattered clouds
523,Tezu,IN,27.9167,96.1667,63.23,53,69,3.69,broken clouds
524,Akhtyrskiy,RU,44.8546,38.3031,52.9,85,76,6.71,broken clouds
525,Akyab,MM,20.15,92.9,74.66,85,9,7.25,clear sky
526,Emba,KZ,48.8264,58.1442,18.34,63,99,15.08,overcast clouds
527,Beringovskiy,RU,63.05,179.3167,0.25,97,100,13.94,light snow
528,Carberry,CA,49.8689,-99.3602,10.63,94,100,13.53,light snow
529,Sioux Lookout,CA,50.1001,-91.917,7.18,72,75,3.44,broken clouds
530,High Level,CA,58.5169,-117.136,8.71,85,40,2.3,scattered clouds
531,Mugango,TZ,-1.6833,33.7,74.23,63,95,5.7,overcast clouds
532,Den Helder,NL,52.9599,4.7593,40.98,92,75,17.27,broken clouds
533,Micheweni,TZ,-4.9667,39.8333,78.26,86,25,10.29,moderate rain
534,Peschanokopskoye,RU,46.1961,41.0775,42.21,89,99,3.65,overcast clouds
535,Kefamenanu,ID,-9.4467,124.4781,72.09,89,95,2.1,overcast clouds
536,Henties Bay,NA,-22.116,14.2845,58.86,92,0,3.78,clear sky
537,Kharabali,RU,47.4196,47.2568,41.13,61,33,19.95,scattered clouds
538,Salamanca,ES,40.8333,-6.0,41.0,88,90,17.18,overcast clouds
539,Hamilton,US,39.1834,-84.5333,41.99,59,7,3.0,clear sky
540,Wad Madani,SD,14.4012,33.5199,80.29,31,0,10.76,clear sky
541,Paamiut,GL,61.994,-49.6678,23.07,76,100,7.02,overcast clouds
542,Vanimo,PG,-2.6741,141.3028,78.22,88,99,5.7,moderate rain
543,Tiznit,MA,29.5833,-9.5,54.5,74,59,3.02,broken clouds
544,Sakakah,SA,29.9697,40.2064,60.37,30,0,18.48,clear sky
545,Antalaha,MG,-14.9003,50.2788,73.33,81,52,6.17,broken clouds
546,Surt,LY,31.2089,16.5887,59.23,32,57,14.43,broken clouds
547,Tessalit,ML,20.1986,1.0114,71.37,13,23,6.64,few clouds
548,Ketchikan,US,55.3422,-131.6461,37.42,75,89,5.61,light rain
549,Merauke,ID,-8.4667,140.3333,78.46,90,100,6.24,overcast clouds
550,Krasnoselkup,RU,65.7,82.4667,12.4,93,100,23.42,light snow
551,Toamasina,MG,-18.1667,49.3833,73.4,88,20,2.3,light rain
552,Petropavlovsk-Kamchatskiy,RU,53.0452,158.6483,21.79,50,40,11.18,scattered clouds
553,Port Macquarie,AU,-31.4333,152.9167,65.89,92,97,2.93,moderate rain
554,Oxford,GB,51.7522,-1.256,42.91,81,75,1.01,broken clouds
555,Dire,ML,12.2833,-10.9667,78.28,20,39,2.28,scattered clouds
556,Moyo,UG,3.6609,31.7247,76.91,43,100,0.49,overcast clouds
557,Zhanaozen,KZ,43.3,52.8,42.39,55,8,29.68,clear sky
558,Chanika,TZ,-5.4167,38.0167,67.73,99,51,3.11,broken clouds
559,Rundu,NA,-17.9333,19.7667,70.48,68,100,0.78,overcast clouds
560,Partizanske,SK,48.6286,18.3846,35.26,79,100,7.14,overcast clouds
561,Korgen,NO,66.0771,13.8153,23.27,91,7,7.63,clear sky
562,Mackay,AU,-21.15,149.2,78.67,94,40,4.61,scattered clouds
563,Cap Malheureux,MU,-19.9842,57.6142,78.48,71,18,5.01,few clouds
564,Cabinda,AO,-5.55,12.2,78.67,90,92,4.12,overcast clouds
565,Plettenberg Bay,ZA,-34.0527,23.3716,65.32,90,77,7.23,broken clouds
566,Sudak,UA,44.85,34.9667,50.29,88,13,12.77,few clouds
567,Juneau,US,58.3019,-134.4197,34.84,96,90,19.57,snow
568,Tokur,RU,53.1333,132.9,-2.45,97,98,3.91,overcast clouds
569,Vilhena,BR,-12.7406,-60.1458,77.22,83,20,6.91,few clouds
570,Dakoro,NE,14.5106,6.765,66.36,10,97,11.83,overcast clouds
571,Tromso,NO,69.6496,18.957,19.42,63,0,8.05,clear sky
572,Puerto Madero,MX,14.7208,-92.4215,83.5,67,100,4.36,overcast clouds
573,Luce,FR,48.4369,1.4636,36.7,92,73,1.99,broken clouds
574,Valparaiso,CL,-33.0393,-71.6273,71.83,60,0,10.36,clear sky
575,Kieta,PG,-6.2167,155.6333,80.98,84,100,2.91,overcast clouds
576,Launceston,AU,-41.45,147.1667,56.61,73,75,1.99,broken clouds
577,Gravelbourg,CA,49.8834,-106.5512,37.67,80,56,18.52,broken clouds
578,Bauchi,NG,10.5,10.0,68.41,17,100,6.55,overcast clouds
579,San Ramon,US,37.7799,-121.978,57.7,90,75,3.0,broken clouds
580,Allapalli,IN,19.4167,80.0667,71.19,59,97,2.26,overcast clouds
581,Pierre,US,44.3683,-100.351,45.28,48,13,4.0,few clouds
582,Tutoia,BR,-2.7619,-42.2744,82.09,79,17,13.29,few clouds
583,Tagusao,PH,9.1924,117.8141,78.76,80,100,9.35,overcast clouds
584,Luau,AO,-10.7073,22.2247,65.37,98,99,8.39,moderate rain
585,Catuday,PH,16.2923,119.8062,74.68,71,100,10.27,overcast clouds
586,Broken Hill,AU,-31.95,141.4333,51.51,50,0,13.8,clear sky
587,Abha,SA,18.2164,42.5053,55.22,94,0,0.0,clear sky
588,Januaria,BR,-15.4833,-44.3667,74.35,93,55,2.06,broken clouds
589,Singapore,SG,1.2897,103.8501,78.75,83,75,8.05,broken clouds
590,Muros,ES,42.7762,-9.0603,51.24,94,77,17.29,broken clouds
591,Takoradi,GH,4.8845,-1.7554,80.69,82,5,6.96,clear sky
592,Lubaczow,PL,50.157,23.1234,24.51,97,70,6.49,broken clouds
593,De-Kastri,RU,51.4667,140.7833,16.54,83,13,4.74,few clouds
594,Qasigiannguit,GL,68.8193,-51.1922,9.52,80,100,5.61,overcast clouds
595,Kidal,ML,18.4411,1.4078,70.84,14,0,11.05,clear sky
596,Kontagora,NG,10.3999,5.4695,76.17,20,87,5.19,overcast clouds
597,Nishihara,JP,26.1842,127.7558,65.48,68,75,10.36,broken clouds
598,Catalao,BR,-18.1658,-47.9464,77.83,46,27,10.29,scattered clouds
599,Hlohovec,SK,48.4317,17.8031,35.82,75,95,15.93,overcast clouds
600,San Carlos Del Zulia,VE,9.0,-71.9135,87.08,59,79,10.56,broken clouds
601,Hostotipaquillo,MX,21.0667,-104.0667,85.05,14,79,2.53,broken clouds
602,Pathein,MM,16.7833,94.7333,69.93,79,45,3.51,scattered clouds
603,Puerto Escondido,MX,15.85,-97.0667,86.49,61,24,5.28,few clouds
604,Ayorou,NE,14.7308,0.9174,76.08,13,3,10.8,clear sky
605,Pimentel,PE,-6.8367,-79.9342,73.69,64,20,23.02,few clouds
606,Mayya,RU,61.7333,130.2811,-25.69,98,100,3.89,overcast clouds
607,Jiangyou,CN,31.7667,104.7167,47.23,86,23,0.29,few clouds
608,Lithgow,AU,-33.4833,150.15,53.47,89,75,2.71,broken clouds
609,Pemangkat,ID,1.1667,108.9667,77.9,87,99,7.99,overcast clouds
610,Baijiantan,CN,45.6333,85.1833,36.7,70,100,11.21,overcast clouds
611,Port Hawkesbury,CA,45.6169,-61.3485,30.15,69,90,3.0,overcast clouds
612,Nakhon Phanom,TH,17.3333,104.4167,63.16,86,69,4.5,broken clouds
613,Port Hedland,AU,-20.3167,118.5667,86.05,54,13,8.05,few clouds
614,Calgary,CA,51.0501,-114.0853,38.79,76,75,14.0,light rain
615,Hirara,JP,24.8,125.2833,70.25,60,97,16.49,overcast clouds
616,Uray,RU,60.1247,64.7758,6.87,89,100,6.4,overcast clouds
617,Mackenzie,CA,55.2999,-123.1698,26.82,63,1,0.0,light snow
618,Rong Kwang,TH,18.339,100.3174,65.55,75,50,2.59,scattered clouds
619,Bisira,PA,8.5196,-81.7115,68.25,68,85,6.31,overcast clouds
620,Ribas Do Rio Pardo,BR,-20.4431,-53.7592,85.35,34,0,7.81,clear sky
621,Leh,IN,34.1667,77.5833,13.23,93,93,0.11,overcast clouds
622,Starosubkhangulovo,RU,53.1031,57.4423,9.55,95,100,2.73,overcast clouds
623,Nemuro,JP,43.3236,145.575,38.57,63,99,7.45,overcast clouds
624,Porto Novo,BJ,6.4965,2.6036,84.02,78,5,5.86,clear sky
625,Gualaquiza,EC,-3.4,-78.55,74.43,85,95,2.8,light rain
626,Ostersund,SE,63.1792,14.6357,20.61,93,90,12.66,light snow
627,Nagato,JP,34.3833,131.2,46.31,76,50,10.04,scattered clouds
628,Konevo,RU,62.1215,39.3192,0.28,100,97,3.15,overcast clouds
629,Beaverlodge,CA,55.2166,-119.4361,27.75,57,5,20.04,clear sky
630,Saint-Denis,FR,48.9167,2.3333,39.97,89,0,8.05,clear sky
631,Grants,US,35.1473,-107.8514,52.03,32,75,9.22,broken clouds
632,South Venice,US,27.0531,-82.4243,81.16,87,20,9.22,few clouds
633,Sumkino,RU,58.1108,68.3244,3.22,92,72,6.73,broken clouds
634,Carmen,MX,18.6333,-91.8333,84.09,68,86,2.77,overcast clouds
635,Sayreville,US,40.4593,-74.361,42.03,62,88,1.01,overcast clouds
636,Sosnovo-Ozerskoye,RU,52.5249,111.5418,7.59,95,85,8.1,overcast clouds
637,Devgarh,IN,25.5333,73.9,57.31,43,0,5.44,clear sky
638,Egvekinot,RU,66.3167,-179.1667,-9.94,85,96,8.01,overcast clouds
639,Tuam,IE,53.5167,-8.85,42.57,64,6,12.19,clear sky
640,Belozerskoye,RU,55.8214,65.5842,10.99,82,100,10.4,overcast clouds
641,Raga,SS,8.4596,25.678,76.98,22,38,4.56,scattered clouds
642,Mandalgovi,MN,45.7625,106.2708,20.5,43,43,14.25,scattered clouds
643,Vitim,RU,59.4511,112.5578,10.22,94,100,8.3,light snow
644,Uri,IN,34.0833,74.0333,42.55,55,0,6.13,clear sky
645,Greenville,US,35.6127,-77.3663,45.28,95,90,1.99,overcast clouds
646,Severo-Kurilsk,RU,50.6789,156.125,31.51,63,91,28.57,overcast clouds
647,Waddan,LY,29.1614,16.139,53.85,30,1,6.6,clear sky
648,Lumsden,CA,50.6501,-104.8678,38.39,89,99,16.15,overcast clouds
649,Hurricane,US,37.1753,-113.2899,54.01,78,99,1.07,overcast clouds
650,Rincon,US,32.296,-81.2354,66.16,89,99,8.68,overcast clouds
651,Acari,PE,-15.4311,-74.6158,75.61,67,77,10.09,broken clouds
652,Ayan,RU,56.45,138.1667,14.86,69,82,2.46,broken clouds
653,Dhidhdhoo,MV,6.8833,73.1,80.6,76,49,1.86,scattered clouds
654,Zaysan,KZ,47.4667,84.8667,14.86,96,100,2.8,light snow
655,Pershotravneve,UA,51.3929,28.8684,25.03,96,100,7.63,light snow
656,Banyo,CM,6.75,11.8167,70.83,33,5,2.77,clear sky
657,Nkoteng,CM,4.5167,12.0333,71.67,58,75,1.52,broken clouds
658,Olinda,BR,-8.0089,-34.8553,83.93,70,75,6.91,broken clouds
659,Kyra,RU,49.5776,111.9753,16.23,83,99,6.38,overcast clouds
660,Darhan,MN,49.4867,105.9228,9.19,90,94,1.77,overcast clouds
661,Pecos,US,31.4229,-103.4932,76.3,15,1,3.44,clear sky
662,Rabo De Peixe,PT,37.8,-25.5833,60.28,95,75,2.3,broken clouds
663,Bilibino,RU,68.0546,166.4372,-40.43,99,99,0.94,overcast clouds
664,Hearst,CA,49.6835,-83.6665,3.45,90,100,4.36,overcast clouds
665,Fairbanks,US,64.8378,-147.7164,10.4,92,75,3.44,broken clouds
666,Derby,GB,52.9228,-1.4766,43.09,87,75,19.57,moderate rain
667,Asfi,MA,32.2994,-9.2372,61.83,78,40,21.97,scattered clouds
668,Codajas,BR,-3.8367,-62.0569,81.07,88,99,1.01,overcast clouds
669,Peniche,PT,39.3558,-9.3811,55.62,76,89,20.09,overcast clouds
670,Kaeo,NZ,-35.1,173.7833,67.32,93,99,3.49,overcast clouds
671,Barcelos,PT,41.5388,-8.6151,50.85,80,83,10.6,broken clouds
672,Mennecy,FR,48.569,2.4438,39.52,89,75,5.75,broken clouds
673,Kwinana,AU,-32.25,115.7667,82.54,36,0,15.82,clear sky
674,Mabaruma,GY,8.2,-59.7833,75.54,97,58,4.32,broken clouds
675,Mumbwa,ZM,-14.9783,27.0619,73.83,39,52,5.99,broken clouds
676,Tsumeb,NA,-19.2333,17.7167,78.35,54,34,7.2,scattered clouds
677,Yar-Sale,RU,66.8333,70.8333,16.84,79,100,22.95,overcast clouds
678,Binzhou,CN,37.3667,118.0167,40.93,68,100,3.83,overcast clouds
679,Purpe,RU,64.4803,76.6897,12.54,90,100,28.16,light snow
680,Westport,US,41.1415,-73.3579,41.79,77,100,1.01,overcast clouds
681,Aklavik,CA,68.2191,-135.0107,15.8,73,90,10.36,light snow
682,Gillette,US,44.2911,-105.5022,49.05,46,38,8.01,scattered clouds
683,Manggar,ID,-2.8833,108.2667,79.27,85,28,5.28,scattered clouds
684,Farrukhnagar,IN,17.0778,78.2011,67.71,76,77,7.23,broken clouds
685,Razdolnoye,RU,43.55,131.9167,10.81,94,25,2.59,scattered clouds
686,Livramento,BR,-3.0254,-60.1803,84.87,94,40,11.5,shower rain
687,Kasangulu,CD,-4.5911,15.1708,76.14,94,68,2.53,broken clouds
688,Kununurra,AU,-15.7667,128.7333,75.18,88,40,11.5,light rain
689,Hit,IQ,33.6416,42.8251,61.63,21,22,9.22,few clouds
690,Mayo,US,38.8876,-76.5119,44.37,69,84,4.0,broken clouds
691,Kudahuvadhoo,MV,2.6708,72.8944,81.68,78,100,9.08,overcast clouds
692,Thinadhoo,MV,0.5333,72.9333,80.62,77,95,5.35,overcast clouds
693,Simpang,ID,-1.2667,104.0833,75.13,96,100,2.42,overcast clouds
694,Ichnya,UA,50.8626,32.3942,35.51,95,100,11.61,overcast clouds
695,Seminole,US,28.7086,-81.2081,83.26,69,43,1.01,scattered clouds
696,Liverpool,GB,53.4106,-2.9779,45.68,90,86,11.01,overcast clouds
697,Ampanihy,MG,-24.7,44.75,70.77,90,92,4.85,overcast clouds
698,Brenham,US,30.1669,-96.3977,76.64,62,1,5.75,clear sky
699,Palotina,BR,-24.2839,-53.84,83.71,40,0,2.71,clear sky
700,Halifax,CA,44.6453,-63.5724,30.99,79,90,4.0,overcast clouds
701,Ojinaga,MX,29.5667,-104.4167,75.42,30,1,3.44,clear sky
702,Talas,TR,38.6908,35.5538,39.87,93,75,6.91,broken clouds
703,Sainte-Adele,CA,45.9501,-74.1325,15.42,86,100,7.45,overcast clouds
704,Sao Jose Da Coroa Grande,BR,-8.8978,-35.1478,80.15,78,6,7.81,clear sky
705,Dongsheng,CN,39.8161,109.9776,26.22,52,1,16.11,clear sky
706,Jyvaskyla,FI,62.2415,25.7209,-2.87,84,90,1.14,light snow
707,Uyuni,BO,-20.4597,-66.825,63.99,35,99,5.32,overcast clouds
708,La Asuncion,VE,11.0333,-63.8628,85.73,70,41,16.11,scattered clouds
709,Tamworth,GB,52.634,-1.6959,42.82,87,100,8.01,overcast clouds
710,Rio Do Sul,BR,-27.2142,-49.6431,69.91,58,2,7.52,clear sky
711,Kilindoni,TZ,-7.9139,39.6668,80.87,78,100,12.64,overcast clouds
712,Tilichiki,RU,60.4667,166.1,-10.53,99,87,6.98,overcast clouds
713,Vaja,HU,48.0057,22.1676,36.68,77,5,4.25,clear sky
714,Juegang,CN,32.3174,121.1855,50.92,77,86,5.37,overcast clouds
715,Hofn,IS,64.2539,-15.2082,34.65,60,100,9.86,light rain
716,Maraba,BR,-5.3686,-49.1178,82.58,78,40,0.0,scattered clouds
717,Jand,PK,33.4299,72.0193,56.23,36,0,2.62,clear sky
718,Baile Herculane,RO,44.8797,22.4125,29.03,92,39,3.94,scattered clouds
719,Kinshasa,CD,-4.3246,15.3215,77.38,83,41,4.61,scattered clouds
720,Naliya,IN,23.2667,68.8333,68.4,36,0,8.23,clear sky
